{"MRData":{"xmlns":"http:\/\/ergast.com\/mrd\/1.4","series":"f1","url":"http://ergast.com/api/f1/2020.json","limit":"30","offset":"0","total":"15","RaceTable":{"season":"2020","Races":[{"season":"2020","round":"1","url":"https:\/\/en.wikipedia.org\/wiki\/2020_Azerbaijan_Grand_Prix","raceName":"Azerbaijan Grand Prix","Circuit":{"circuitId":"BAK","url":"http:\/\/en.wikipedia.org\/wiki\/Baku_City_Circuit","circuitName":"Baku City Circuit","Location":{"lat":"40.3725","long":"49.8533","locality":"Baku","country":"Azerbaijan"}},"date":"2020-06-07","time":"12:10:00Z"},{"season":"2020","round":"2","url":"https:\/\/en.wikipedia.org\/wiki\/2020_Canadian_Grand_Prix","raceName":"Canadian Grand Prix","Circuit":{"circuitId":"villeneuve","url":"http:\/\/en.wikipedia.org\/wiki\/Circuit_Gilles_Villeneuve","circuitName":"Circuit Gilles Villeneuve","Location":{"lat":"45.5","long":"-73.5228","locality":"Montreal","country":"Canada"}},"date":"2020-06-14","time":"18:10:00Z"},{"season":"2020","round":"3","url":"https:\/\/en.wikipedia.org\/wiki\/2020_French_Grand_Prix","raceName":"French Grand Prix","Circuit":{"circuitId":"ricard","url":"http:\/\/en.wikipedia.org\/wiki\/Paul_Ricard_Circuit","circuitName":"Circuit Paul Ricard","Location":{"lat":"43.2506","long":"5.79167","locality":"Le Castellet","country":"France"}},"date":"2020-06-28","time":"13:10:00Z"},{"season":"2020","round":"4","url":"https:\/\/en.wikipedia.org\/wiki\/2020_Austrian_Grand_Prix","raceName":"Austrian Grand Prix","Circuit":{"circuitId":"red_bull_ring","url":"http:\/\/en.wikipedia.org\/wiki\/Red_Bull_Ring","circuitName":"Red Bull Ring","Location":{"lat":"47.2197","long":"14.7647","locality":"Spielburg","country":"Austria"}},"date":"2020-07-05","time":"13:10:00Z"},{"season":"2020","round":"5","url":"https:\/\/en.wikipedia.org\/wiki\/2020_British_Grand_Prix","raceName":"British Grand Prix","Circuit":{"circuitId":"silverstone","url":"http:\/\/en.wikipedia.org\/wiki\/Silverstone_Circuit","circuitName":"Silverstone Circuit","Location":{"lat":"52.0786","long":"-1.01694","locality":"Silverstone","country":"UK"}},"date":"2020-07-19","time":"14:10:00Z"},{"season":"2020","round":"6","url":"https:\/\/en.wikipedia.org\/wiki\/2020_Hungarian_Grand_Prix","raceName":"Hungarian Grand Prix","Circuit":{"circuitId":"hungaroring","url":"http:\/\/en.wikipedia.org\/wiki\/Hungaroring","circuitName":"Hungaroring","Location":{"lat":"47.5789","long":"19.2486","locality":"Budapest","country":"Hungary"}},"date":"2020-08-02","time":"13:10:00Z"},{"season":"2020","round":"7","url":"https:\/\/en.wikipedia.org\/wiki\/2020_Belgian_Grand_Prix","raceName":"Belgian Grand Prix","Circuit":{"circuitId":"spa","url":"http:\/\/en.wikipedia.org\/wiki\/Circuit_de_Spa-Francorchamps","circuitName":"Circuit de Spa-Francorchamps","Location":{"lat":"50.4372","long":"5.97139","locality":"Spa","country":"Belgium"}},"date":"2020-08-30","time":"13:10:00Z"},{"season":"2020","round":"8","url":"https:\/\/en.wikipedia.org\/wiki\/2020_Italian_Grand_Prix","raceName":"Italian Grand Prix","Circuit":{"circuitId":"monza","url":"http:\/\/en.wikipedia.org\/wiki\/Autodromo_Nazionale_Monza","circuitName":"Autodromo Nazionale di Monza","Location":{"lat":"45.6156","long":"9.28111","locality":"Monza","country":"Italy"}},"date":"2020-09-06","time":"13:10:00Z"},{"season":"2020","round":"9","url":"https:\/\/en.wikipedia.org\/wiki\/2020_Singapore_Grand_Prix","raceName":"Singapore Grand Prix","Circuit":{"circuitId":"marina_bay","url":"http:\/\/en.wikipedia.org\/wiki\/Marina_Bay_Street_Circuit","circuitName":"Marina Bay Street Circuit","Location":{"lat":"1.2914","long":"103.864","locality":"Marina Bay","country":"Singapore"}},"date":"2020-09-20","time":"12:10:00Z"},{"season":"2020","round":"10","url":"https:\/\/en.wikipedia.org\/wiki\/2020_Russian_Grand_Prix","raceName":"Russian Grand Prix","Circuit":{"circuitId":"sochi","url":"http:\/\/en.wikipedia.org\/wiki\/Sochi_Autodrom","circuitName":"Sochi Autodrom","Location":{"lat":"43.4057","long":"39.9578","locality":"Sochi","country":"Russia"}},"date":"2020-09-27","time":"11:10:00Z"},{"season":"2020","round":"11","url":"https:\/\/en.wikipedia.org\/wiki\/2020_Japanese_Grand_Prix","raceName":"Japanese Grand Prix","Circuit":{"circuitId":"suzuka","url":"http:\/\/en.wikipedia.org\/wiki\/Suzuka_Circuit","circuitName":"Suzuka Circuit","Location":{"lat":"34.8431","long":"136.541","locality":"Suzuka","country":"Japan"}},"date":"2020-10-11","time":"04:10:00Z"},{"season":"2020","round":"12","url":"https:\/\/en.wikipedia.org\/wiki\/2020_United_States_Grand_Prix","raceName":"United States Grand Prix","Circuit":{"circuitId":"americas","url":"http:\/\/en.wikipedia.org\/wiki\/Circuit_of_the_Americas","circuitName":"Circuit of the Americas","Location":{"lat":"30.1328","long":"-97.6411","locality":"Austin","country":"USA"}},"date":"2020-10-25","time":"19:10:00Z"},{"season":"2020","round":"13","url":"https:\/\/en.wikipedia.org\/wiki\/2020_Mexican_Grand_Prix","raceName":"Mexico City Grand Prix","Circuit":{"circuitId":"rodriguez","url":"http:\/\/en.wikipedia.org\/wiki\/Aut%C3%B3dromo_Hermanos_Rodr%C3%ADguez","circuitName":"Autódromo Hermanos Rodríguez","Location":{"lat":"19.4042","long":"-99.0907","locality":"Mexico City","country":"Mexico"}},"date":"2020-11-01","time":"19:10:00Z"},{"season":"2020","round":"14","url":"https:\/\/en.wikipedia.org\/wiki\/2020_Brazilian_Grand_Prix","raceName":"Brazilian Grand Prix","Circuit":{"circuitId":"interlagos","url":"http:\/\/en.wikipedia.org\/wiki\/Aut%C3%B3dromo_Jos%C3%A9_Carlos_Pace","circuitName":"Autódromo José Carlos Pace","Location":{"lat":"-23.7036","long":"-46.6997","locality":"São Paulo","country":"Brazil"}},"date":"2020-11-15","time":"17:10:00Z"},{"season":"2020","round":"15","url":"https:\/\/en.wikipedia.org\/wiki\/2020_Abu_Dhabi_Grand_Prix","raceName":"Abu Dhabi Grand Prix","Circuit":{"circuitId":"yas_marina","url":"http:\/\/en.wikipedia.org\/wiki\/Yas_Marina_Circuit","circuitName":"Yas Marina Circuit","Location":{"lat":"24.4672","long":"54.6031","locality":"Abu Dhabi","country":"UAE"}},"date":"2020-11-29","time":"13:10:00Z"}]}}}
